<?xml version='1.0' encoding='UTF-8'?>
<kml xmlns='http://www.opengis.net/kml/2.2'>
	<Document>
		<name>plan_locaties-definitief</name>
		<description><![CDATA[]]></description>
		<Folder>
			<name>Veld &amp; Duin</name>
			<Placemark>
				<name>Veld en Duin</name>
				<styleUrl>#poly-62AF44-1-51-nodesc</styleUrl>
				<Polygon>
					<outerBoundaryIs>
						<LinearRing>
							<tessellate>1</tessellate>
							<coordinates>2.9796124,51.2483311,0.0 2.9809213,51.250104,0.0 2.9807389,51.2501107,0.0 2.9792261,51.2525684,0.0 2.9777455,51.2522461,0.0 2.9778636,51.2519507,0.0 2.9775739,51.2518566,0.0 2.97737,51.2521521,0.0 2.9772413,51.2521253,0.0 2.9779708,51.2510508,0.0 2.9786038,51.2500637,0.0 2.9780352,51.2499159,0.0 2.9796124,51.2483311,0.0</coordinates>
						</LinearRing>
					</outerBoundaryIs>
				</Polygon>
			</Placemark>
		</Folder>
		<Folder>
			<name>tentoonstelling</name>
			<Placemark>
				<name>01-crash</name>
				<styleUrl>#icon-960-F8971B-nodesc</styleUrl>
				<Point>
					<coordinates>2.9782793,51.2523048,0.0</coordinates>
				</Point>
			</Placemark>
			<Placemark>
				<name>02-verloren voorwerpen / vintage</name>
				<styleUrl>#icon-960-F8971B-nodesc</styleUrl>
				<Point>
					<coordinates>2.9791965,51.251959,0.0</coordinates>
				</Point>
			</Placemark>
			<Placemark>
				<name>03-archeologie</name>
				<styleUrl>#icon-960-F8971B-nodesc</styleUrl>
				<Point>
					<coordinates>2.9785958,51.2517324,0.0</coordinates>
				</Point>
			</Placemark>
			<Placemark>
				<name>05-klaaghaag</name>
				<styleUrl>#icon-960-F8971B-nodesc</styleUrl>
				<Point>
					<coordinates>2.9777401,51.2517778,0.0</coordinates>
				</Point>
			</Placemark>
			<Placemark>
				<name>06-tijdpalen</name>
				<styleUrl>#icon-960-F8971B-nodesc</styleUrl>
				<Point>
					<coordinates>2.9788721,51.2511649,0.0</coordinates>
				</Point>
			</Placemark>
			<Placemark>
				<name>07-tentententoonstellingsboom</name>
				<styleUrl>#icon-960-F8971B-nodesc</styleUrl>
				<Point>
					<coordinates>2.9789606,51.249968,0.0</coordinates>
				</Point>
			</Placemark>
			<Placemark>
				<name>08-korenveld</name>
				<styleUrl>#icon-960-F8971B-nodesc</styleUrl>
				<Point>
					<coordinates>2.9790572,51.249424,0.0</coordinates>
				</Point>
			</Placemark>
			<Placemark>
				<name>04-cinema</name>
				<styleUrl>#icon-960-F8971B-nodesc</styleUrl>
				<Point>
					<coordinates>2.9782015,51.251672,0.0</coordinates>
				</Point>
			</Placemark>
		</Folder>
		<Style id='icon-960-F8971B-nodesc'>
			<IconStyle>
				<color>ff1B97F8</color>
				<scale>1.1</scale>
				<Icon>
					<href>http://www.gstatic.com/mapspro/images/stock/960-wht-star-blank.png</href>
				</Icon>
			</IconStyle>
			<BalloonStyle>
				<text><![CDATA[<h3>$[name]</h3>]]></text>
			</BalloonStyle>
		</Style>
		<Style id='poly-62AF44-1-51-nodesc-normal'>
			<LineStyle>
				<color>ff44AF62</color>
				<width>1</width>
			</LineStyle>
			<PolyStyle>
				<color>3344AF62</color>
				<fill>1</fill>
				<outline>1</outline>
			</PolyStyle>
			<BalloonStyle>
				<text><![CDATA[<h3>$[name]</h3>]]></text>
			</BalloonStyle>
		</Style>
		<Style id='poly-62AF44-1-51-nodesc-highlight'>
			<LineStyle>
				<color>ff44AF62</color>
				<width>2.0</width>
			</LineStyle>
			<PolyStyle>
				<color>3344AF62</color>
				<fill>1</fill>
				<outline>1</outline>
			</PolyStyle>
			<BalloonStyle>
				<text><![CDATA[<h3>$[name]</h3>]]></text>
			</BalloonStyle>
		</Style>
		<StyleMap id='poly-62AF44-1-51-nodesc'>
			<Pair>
				<key>normal</key>
				<styleUrl>#poly-62AF44-1-51-nodesc-normal</styleUrl>
			</Pair>
			<Pair>
				<key>highlight</key>
				<styleUrl>#poly-62AF44-1-51-nodesc-highlight</styleUrl>
			</Pair>
		</StyleMap>
	</Document>
</kml>